{
  "0": {
    "name": "애니플라자",
    "rating": "3.9(29)",
    "type": "장난감 가게 ",
    "address": " 서교동 331-10",
    "number": " 070-4007-1999",
    "latitude": 37.55586464,
    "longitude": 126.9255381
  },
  "1": {
    "name": "사심굿즈",
    "rating": "5.0(1)",
    "type": "잡화점 ",
    "address": " 망원1동 월드컵로19길 30",
    "number": null,
    "latitude": 37.55620519,
    "longitude": 126.9078756
  },
  "2": {
    "name": "CIH+SHOP",
    "rating": "4.0(23)",
    "type": "취미용품점 ",
    "address": " 상수동 와우산로22길 72",
    "number": null,
    "latitude": 37.54933014,
    "longitude": 126.9240985
  },
  "3": {
    "name": "굿즈이즈커밍",
    "rating": "5.0(1)",
    "type": "쇼핑몰 ",
    "address": " 성산동 50-12 굿즈이즈커밍 1층",
    "number": " 02-333-9624",
    "latitude": 37.5649001,
    "longitude": 126.9131241
  },
  "4": {
    "name": "애니메이트 홍대점",
    "rating": "4.5(773)",
    "type": "취미용품점 ",
    "address": " 양화로 188 애니메이트 홍대 애경타워 5층",
    "number": " 02-3144-7357",
    "latitude": 37.55774581,
    "longitude": 126.9264983
  },
  "5": {
    "name": "앉으나 서나 당신 생각",
    "rating": "4.3(6)",
    "type": "쇼핑몰 ",
    "address": " 서교동 신촌로6길 17",
    "number": "02-3144-4762",
    "latitude": 37.55654538,
    "longitude": 126.9300198
  },
  "6": {
    "name": "멍멍토이키링&안서당",
    "rating": "4.4(219)",
    "type": "장난감 가게 ",
    "address": " 서교동 신촌로6길 17",
    "number": " 02-3144-4762",
    "latitude": 37.55654538,
    "longitude": 126.9300198
  },
  "7": {
    "name": "오모차랜드 홍대점",
    "rating": "4.0(87)",
    "type": "쇼핑몰 ",
    "address": " 홍익로5길 36 오모차랜드 홍대점 2층",
    "number": " 010-5775-6552",
    "latitude": 37.55363452,
    "longitude": 126.9204623
  },
  "8": {
    "name": "스타굿즈샵",
    "rating": "5.0(1)",
    "type": "상점 ",
    "address": " 명동2가 55-10번지 2호 3 4층",
    "number": null,
    "latitude": 37.56313253,
    "longitude": 126.9835598
  },
  "9": {
    "name": "사운즈 굿 스토어",
    "rating": "3.9(24)",
    "type": "음반 판매점 ",
    "address": " 성미산로29길 26 지하 1층",
    "number": " 02-332-0149",
    "latitude": 37.56515264,
    "longitude": 126.922302
  },
  "10": {
    "name": "엑스디브이디",
    "rating": "리뷰 없음",
    "type": "비디오 가게 ",
    "address": " 홍익로6길 23",
    "number": " 02-333-9653",
    "latitude": 37.55554684,
    "longitude": 126.9229715
  },
  "11": {
    "name": "캣츠굿즈",
    "rating": "5.0(1)",
    "type": "상점 ",
    "address": " 원효로48길 17",
    "number": "070-4639-2472",
    "latitude": 37.53431597,
    "longitude": 126.961186
  },
  "12": {
    "name": "피규어프레소 홍대점",
    "rating": "4.4(112)",
    "type": "취미용품점 ",
    "address": " 서교동 홍익로5안길 50 2층",
    "number": " 010-7153-9467",
    "latitude": 37.5528958,
    "longitude": 126.9203479
  },
  "13": {
    "name": "호에마켓",
    "rating": "리뷰 없음",
    "type": "잡화점 ",
    "address": " 와우산로29길 48-14",
    "number": null,
    "latitude": 37.55600174,
    "longitude": 126.9278099
  },
  "14": {
    "name": "(주)어바웃굿즈",
    "rating": "리뷰 없음",
    "type": "인터넷 쇼핑몰 ",
    "address": " 한강대로 256 4층",
    "number": " 1544-9180",
    "latitude": 37.54128898,
    "longitude": 126.9735245
  },
  "15": {
    "name": "수원굿즈",
    "rating": "리뷰 없음",
    "type": "쇼핑몰 ",
    "address": " 매산로1가 16-8 7번",
    "number": null,
    "latitude": 37.26759175,
    "longitude": 127.0013983
  },
  "16": {
    "name": "홍대 롤리버튼",
    "rating": "리뷰 없음",
    "type": "쇼핑몰 ",
    "address": " 와우산로29바길 26",
    "number": null,
    "latitude": 37.55541701,
    "longitude": 126.9255067
  },
  "17": {
    "name": "굿즈앤굿즈",
    "rating": "리뷰 없음",
    "type": "주방용품점 ",
    "address": " 자동차시장1길 39",
    "number": "050-5066-0666",
    "latitude": 37.56121115,
    "longitude": 127.0620132
  },
  "18": {
    "name": "애니플러스 서울합정점",
    "rating": "4.3(936)",
    "type": "기념품 상점 ",
    "address": " 월드컵로3길 14",
    "number": " 070-7162-3000",
    "latitude": 37.55100797,
    "longitude": 126.911649
  },
  "19": {
    "name": "언커먼스토어",
    "rating": "3.8(4)",
    "type": "식료품점 ",
    "address": " 여의대로 108 더현대 서울 6층",
    "number": null,
    "latitude": 37.52519132,
    "longitude": 126.9291128
  },
  "20": {
    "name": "헬로수미코",
    "rating": "4.8(36)",
    "type": "인형 판매점 ",
    "address": " 서교동 월드컵북로1길 26-13",
    "number": " 02-322-5622",
    "latitude": 37.55498092,
    "longitude": 126.9191904
  },
  "21": {
    "name": "알라딘 중고서점 합정점",
    "rating": "4.3(2,104)",
    "type": "중고 서점 ",
    "address": " 독막로 5 지하 1층",
    "number": " 1544-2514",
    "latitude": 37.54901989,
    "longitude": 126.9143079
  },
  "22": {
    "name": "크레이티브굿즈",
    "rating": "리뷰 없음",
    "type": "잡화점 ",
    "address": " 옥인3길 32-5",
    "number": " 010-2505-9992",
    "latitude": 37.57980456,
    "longitude": 126.9656435
  },
  "23": {
    "name": "레인몰",
    "rating": "4.0(2)",
    "type": "선물 가게 ",
    "address": " 상수동 독막로 67-11",
    "number": " 070-8633-8285",
    "latitude": 37.54825022,
    "longitude": 126.9207019
  },
  "24": {
    "name": "Play ONE PIECE",
    "rating": "5.0(2)",
    "type": "문구점 ",
    "address": " 동교동 190-1",
    "number": " 02-322-2176",
    "latitude": 37.55941136,
    "longitude": 126.9248794
  },
  "25": {
    "name": "제로퍼제로 (ZERO SPACE)",
    "rating": "4.2(147)",
    "type": "잡화점 ",
    "address": " 망원1동 희우정로16길 32",
    "number": " 02-322-7561",
    "latitude": 37.5545466,
    "longitude": 126.9037593
  },
  "26": {
    "name": "(주)피규어몰컴퍼니",
    "rating": "3.3(3)",
    "type": "상점 ",
    "address": " 양평로 157 투웨니퍼스트밸리 B105호",
    "number": " 02-514-4753",
    "latitude": 37.53919744,
    "longitude": 126.8903114
  },
  "27": {
    "name": "알류레더굿즈",
    "rating": "리뷰 없음",
    "type": "쇼핑몰 ",
    "address": " 신당동 다산로33길 76",
    "number": null,
    "latitude": 37.563979,
    "longitude": 127.0111743
  },
  "28": {
    "name": "토금토금",
    "rating": "4.0(1)",
    "type": "상점 ",
    "address": " 연남동 229-3번지 최우측 1층 104호",
    "number": null,
    "latitude": 37.56394739,
    "longitude": 126.9249625
  },
  "29": {
    "name": "한우리 신도림점",
    "rating": "4.3(1,342)",
    "type": "게임기 판매점 ",
    "address": " 구로5동 새말로 97",
    "number": " 02-2111-7144",
    "latitude": 37.50704384,
    "longitude": 126.8902273
  },
  "30": {
    "name": "비페이퍼",
    "rating": "리뷰 없음",
    "type": "생활용품점 ",
    "address": " 와우산로 60 한석BD 301호",
    "number": " 02-333-9382",
    "latitude": 37.54993284,
    "longitude": 126.9234393
  },
  "31": {
    "name": "알라딘 중고서점 영등포점",
    "rating": "4.3(1,146)",
    "type": "중고 서점 ",
    "address": " 영중로 12",
    "number": " 1544-2514",
    "latitude": 37.51761761,
    "longitude": 126.906507
  },
  "32": {
    "name": "웁스시디",
    "rating": "리뷰 없음",
    "type": "상점 ",
    "address": " 당산동2가 30-2번지 영등포구 서울특별시 KR",
    "number": " 02-6265-0368",
    "latitude": 37.52261183,
    "longitude": 126.8939741
  },
  "33": {
    "name": "도토리숲 용산점",
    "rating": "4.3(75)",
    "type": "잡화점 ",
    "address": " 한강로동 한강대로23길 55",
    "number": " 02-2012-1322",
    "latitude": 37.5297718,
    "longitude": 126.9647415
  },
  "34": {
    "name": "포레스트컴퍼니",
    "rating": "리뷰 없음",
    "type": "서점 ",
    "address": " 망원동 399-37",
    "number": null,
    "latitude": 37.55471919,
    "longitude": 126.9051537
  },
  "35": {
    "name": "네온문",
    "rating": "4.2(16)",
    "type": "상점 ",
    "address": " 연남동 227-17",
    "number": " 02-326-3002",
    "latitude": 37.56235859,
    "longitude": 126.926424
  },
  "36": {
    "name": "제이굿즈",
    "rating": "5.0(10)",
    "type": null,
    "address": " 갓매산로55번길 18",
    "number": null,
    "latitude": 37.26901859,
    "longitude": 127.0036634
  },
  "37": {
    "name": "MDSPICK",
    "rating": "리뷰 없음",
    "type": "화장품 판매점 ",
    "address": " 동교동 201-18번지 1층 달리빌딩 마포구 서울특별시 KR",
    "number": "02-3152-8822",
    "latitude": 37.55665229,
    "longitude": 126.9210974
  },
  "38": {
    "name": "코믹존",
    "rating": "4.6(764)",
    "type": "서점 ",
    "address": " 신림동 신림로 300",
    "number": " 02-6497-8090",
    "latitude": 37.48114052,
    "longitude": 126.9303107
  },
  "39": {
    "name": "오브젝트 홍대점",
    "rating": "4.3(391)",
    "type": "생활용품점 ",
    "address": " 서교동 326-2",
    "number": null,
    "latitude": 37.55571696,
    "longitude": 126.9297944
  },
  "40": {
    "name": "캡틴락마켓 (captainrock market)",
    "rating": "5.0(1)",
    "type": "의류점 ",
    "address": " 상수동 331-11",
    "number": " 010-2345-9758",
    "latitude": 37.54633361,
    "longitude": 126.9231366
  },
  "41": {
    "name": "겜우리",
    "rating": "4.4(848)",
    "type": "게임 판매점 ",
    "address": " 효령로 304",
    "number": " 02-3465-0048",
    "latitude": 37.4847316,
    "longitude": 127.0178038
  },
  "42": {
    "name": "더현대 서울",
    "rating": "4.3(7,272)",
    "type": "백화점 ",
    "address": " 여의대로 108",
    "number": " 02-767-2233",
    "latitude": 37.52519132,
    "longitude": 126.9291128
  },
  "43": {
    "name": "디자인조선",
    "rating": "리뷰 없음",
    "type": "쇼핑몰 ",
    "address": " 서교동",
    "number": "031-8027-3506",
    "latitude": 37.55509491,
    "longitude": 126.9146134
  },
  "44": {
    "name": "아인서점",
    "rating": "2.3(3)",
    "type": "서점 ",
    "address": " 월드컵로3길 31-30 3층",
    "number": " 070-8667-0033",
    "latitude": 37.54991741,
    "longitude": 126.9109455
  },
  "45": {
    "name": "슈퍼플레이 타임빌라스점",
    "rating": "리뷰 없음",
    "type": "전자제품 판매점 ",
    "address": " 학의동 바라산로 1",
    "number": "031-329-1733",
    "latitude": 37.37601199,
    "longitude": 127.0095839
  },
  "46": {
    "name": "쿄우마샵",
    "rating": "리뷰 없음",
    "type": "상점 ",
    "address": " 서초동 1445-3번지 9층 9140호 롯데슈퍼서조국제전자센터점 서초구 서울특별시 KR",
    "number": "070-8247-4942",
    "latitude": 37.48474242,
    "longitude": 127.0177674
  },
  "47": {
    "name": "타임스퀘어",
    "rating": "4.5(1,929)",
    "type": "쇼핑몰 ",
    "address": " 영중로 15",
    "number": " 02-2638-2000",
    "latitude": 37.51723326,
    "longitude": 126.903716
  },
  "48": {
    "name": "더키월드",
    "rating": "4.1(28)",
    "type": "장난감 가게 ",
    "address": " 동교동 169-1 2F 1F",
    "number": " 1566-6455",
    "latitude": 37.55685962,
    "longitude": 126.9259752
  },
  "49": {
    "name": "베이스볼굿즈",
    "rating": "4.6(7)",
    "type": "야구용품점 ",
    "address": " 서삼릉1길 51 KR 1층",
    "number": " 070-4793-9001",
    "latitude": 37.65273719,
    "longitude": 126.8770686
  },
  "50": {
    "name": "턴스톡스",
    "rating": "3.8(29)",
    "type": "상점 ",
    "address": " 망우동 182-22번지 2층 203호 신흥상가 중랑구 서울특별시 KR",
    "number": " 02-433-7828",
    "latitude": 37.60237486,
    "longitude": 127.1082999
  },
  "51": {
    "name": "땡스북스",
    "rating": "4.4(258)",
    "type": "서점 ",
    "address": " 양화로6길 57-6",
    "number": " 02-325-0321",
    "latitude": 37.54886806,
    "longitude": 126.9177079
  },
  "52": {
    "name": "슈펜 홍대점",
    "rating": "3.9(833)",
    "type": "신발 판매점 ",
    "address": " 동교동 159-8",
    "number": " 02-338-5751",
    "latitude": 37.55642625,
    "longitude": 126.9227583
  },
  "53": {
    "name": "Subaco 수바코",
    "rating": "3.6(9)",
    "type": "장난감 가게 ",
    "address": " 망원1동 희우정로20길 66",
    "number": null,
    "latitude": 37.55604081,
    "longitude": 126.9039826
  },
  "54": {
    "name": "카메하우스 Kame House",
    "rating": "4.7(13)",
    "type": "취미용품점 ",
    "address": " 와우산로25길 26 1층",
    "number": " 010-3255-7996",
    "latitude": 37.55443468,
    "longitude": 126.9261269
  },
  "55": {
    "name": "교보문고 영등포점",
    "rating": "4.5(3,783)",
    "type": "서점 ",
    "address": " 영중로 15 타임스퀘어 멀티플렉스 2층",
    "number": " 02-2678-3501",
    "latitude": 37.51723326,
    "longitude": 126.903716
  },
  "56": {
    "name": "AK& 홍대점",
    "rating": "4.1(1,437)",
    "type": "백화점 ",
    "address": " 양화로 188",
    "number": " 02-789-9800",
    "latitude": 37.55774581,
    "longitude": 126.9264983
  },
  "57": {
    "name": "홍대 빈티지",
    "rating": "리뷰 없음",
    "type": "아웃도어 의류 및 장비 판매점 ",
    "address": " 홍익로 10",
    "number": " 010-8774-0156",
    "latitude": 37.55376198,
    "longitude": 126.9236938
  },
  "58": {
    "name": "화승빌딩",
    "rating": "리뷰 없음",
    "type": null,
    "address": " 망원동",
    "number": " 010-8774-0156",
    "latitude": 37.55678566,
    "longitude": 126.9013473
  },
  "59": {
    "name": "수바코 2호점",
    "rating": "4.0(1)",
    "type": "액세서리 판매점 ",
    "address": " 망원동 414-16",
    "number": null,
    "latitude": 37.55642481,
    "longitude": 126.9048652
  },
  "60": {
    "name": "포롱포롱 잡화점",
    "rating": "4.0(20)",
    "type": "주방용품점 ",
    "address": " 망원1동 희우정로16길 54",
    "number": null,
    "latitude": 37.55474291,
    "longitude": 126.9048502
  },
  "61": {
    "name": "오앙",
    "rating": "4.3(9)",
    "type": "잡화점 ",
    "address": " 망원동 419-7",
    "number": null,
    "latitude": 37.55679581,
    "longitude": 126.9000308
  },
  "62": {
    "name": "주) 엘케이벤쳐스 -인생네컷 본",
    "rating": "1.0(1)",
    "type": "회사 사무실 ",
    "address": " 성산동 114-10",
    "number": " 1833-7970",
    "latitude": 37.56179017,
    "longitude": 126.9155363
  },
  "63": {
    "name": "육공그램",
    "rating": "리뷰 없음",
    "type": "상점 ",
    "address": " 합정동 361-1번지 1층 102호",
    "number": "02-6403-6060",
    "latitude": 37.54747367,
    "longitude": 126.9173176
  },
  "64": {
    "name": "피규어프렌즈",
    "rating": "4.6(36)",
    "type": "장난감 가게 ",
    "address": " 양화로18안길 8 지층",
    "number": " 010-8223-7922",
    "latitude": 37.55660388,
    "longitude": 126.9250685
  },
  "65": {
    "name": "BATON",
    "rating": "리뷰 없음",
    "type": "회사 사무실 ",
    "address": " 월드컵북로6길 26",
    "number": " 02-735-0182",
    "latitude": 37.55827469,
    "longitude": 126.9201188
  },
  "66": {
    "name": "알라딘 중고서점 신촌점",
    "rating": "4.2(1,248)",
    "type": "중고 서점 ",
    "address": " 연세로 21",
    "number": " 1544-2514",
    "latitude": 37.55757241,
    "longitude": 126.9366783
  },
  "67": {
    "name": "943kings cross",
    "rating": "리뷰 없음",
    "type": "커피숍/커피 전문점 ",
    "address": " 서교동 양화로16길 24",
    "number": " 050-71383-2112",
    "latitude": 37.55298865,
    "longitude": 126.92081
  },
  "68": {
    "name": "로프 에디션스",
    "rating": "리뷰 없음",
    "type": "서점 ",
    "address": " 희우정로16길 50 1층",
    "number": null,
    "latitude": 37.55474866,
    "longitude": 126.9047167
  },
  "69": {
    "name": "랜디스도넛 연남점",
    "rating": "4.1(561) · ???",
    "type": "도넛 ",
    "address": " 동교로 247",
    "number": " 02-322-0621",
    "latitude": 37.56203605,
    "longitude": 126.924167
  },
  "70": {
    "name": "EXiT 홍대",
    "rating": "4.1(212)",
    "type": "쇼핑몰 ",
    "address": " 동교동 159-5",
    "number": " 02-2250-7700",
    "latitude": 37.55697027,
    "longitude": 126.9233091
  },
  "71": {
    "name": "썸띵(SOMETHING)",
    "rating": "4.2(26)",
    "type": "카페 ",
    "address": " 상수동 325-5",
    "number": " 02-337-0100",
    "latitude": 37.547405,
    "longitude": 126.921931
  },
  "72": {
    "name": "엘리카메라 성산점",
    "rating": "4.9(15)",
    "type": "카메라 전문점 ",
    "address": " 성암로 28 105호",
    "number": " 010-7725-0404",
    "latitude": 37.56915355,
    "longitude": 126.9133007
  },
  "73": {
    "name": "생원",
    "rating": "4.8(8)",
    "type": "상점 ",
    "address": " 명동2가 105",
    "number": " 02-776-7585",
    "latitude": 37.56222272,
    "longitude": 126.9824596
  },
  "74": {
    "name": "스타벅스 압구정R점",
    "rating": "4.3(353) · ??",
    "type": "커피숍/커피 전문점 ",
    "address": " 언주로 861",
    "number": null,
    "latitude": 37.52739909,
    "longitude": 127.0331135
  },
  "75": {
    "name": "스타벅스 영등포역점",
    "rating": "4.2(475) · ??",
    "type": "커피숍/커피 전문점 ",
    "address": " 영등포동1가 143-3 J&AMP;S",
    "number": null,
    "latitude": 37.51697509,
    "longitude": 126.9092567
  },
  "76": {
    "name": "스테이지 망원",
    "rating": "리뷰 없음",
    "type": "잡화점 ",
    "address": " 망원동 57-23번지 1층",
    "number": null,
    "latitude": 37.55672373,
    "longitude": 126.908355
  },
  "77": {
    "name": "FC서울 팬파크",
    "rating": "4.6(22)",
    "type": "축구용품점 ",
    "address": " 월드컵로 240",
    "number": " 070-4101-7710",
    "latitude": 37.56828845,
    "longitude": 126.897273
  },
  "78": {
    "name": "부루의뜨락",
    "rating": "4.8(28)",
    "type": "CD 상점 ",
    "address": " 명동8나길 37-1",
    "number": " 02-776-6353",
    "latitude": 37.56116871,
    "longitude": 126.9828873
  },
  "79": {
    "name": "소니 스토어 압구정점",
    "rating": "4.0(465)",
    "type": "전자제품 판매점 ",
    "address": " 압구정동 선릉로 801",
    "number": " 02-515-7946",
    "latitude": 37.5235717,
    "longitude": 127.0388327
  },
  "80": {
    "name": "카카오프렌즈 홍대 플래그십 스토어",
    "rating": "4.3(4,628)",
    "type": "잡화점 ",
    "address": " 서교동 양화로 162",
    "number": " 02-6010-0104",
    "latitude": 37.55642986,
    "longitude": 126.9238714
  },
  "81": {
    "name": "용산전자상가",
    "rating": "3.7(2,574)",
    "type": "전자제품 판매점 ",
    "address": " 한강로2가 15-2",
    "number": null,
    "latitude": 37.53391281,
    "longitude": 126.9656717
  },
  "82": {
    "name": "롯데영플라자 본점",
    "rating": "4.1(2,649)",
    "type": "백화점 ",
    "address": " 남대문로 67",
    "number": null,
    "latitude": 37.56348677,
    "longitude": 126.9815302
  },
  "83": {
    "name": "고양이가 있는 액자가게",
    "rating": "4.7(15)",
    "type": "상점 ",
    "address": " 연남동 연희로1길 45",
    "number": null,
    "latitude": 37.56104796,
    "longitude": 126.9259223
  },
  "84": {
    "name": "딜라이트 스퀘어",
    "rating": "4.1(803)",
    "type": "쇼핑몰 ",
    "address": " 월드컵로3길 14",
    "number": null,
    "latitude": 37.55100797,
    "longitude": 126.911649
  },
  "85": {
    "name": "롯데백화점 본점",
    "rating": "4.2(11,240)",
    "type": "백화점 ",
    "address": " 남대문로 81",
    "number": " 02-772-3007",
    "latitude": 37.5647299,
    "longitude": 126.9817304
  },
  "86": {
    "name": "알라딘 중고서점 인천구월점",
    "rating": "4.3(1,220)",
    "type": "중고 서점 ",
    "address": " 인하로 497-22 2층",
    "number": " 1544-2514",
    "latitude": 37.44419981,
    "longitude": 126.7021765
  },
  "87": {
    "name": "Sopooom custom shop (홍대소품)",
    "rating": "4.4(19)",
    "type": "의류점 ",
    "address": " 와우산로26길 66 1층",
    "number": " 010-5122-5324",
    "latitude": 37.55338698,
    "longitude": 126.9285939
  },
  "88": {
    "name": "토이마루",
    "rating": "4.4(28)",
    "type": "상점 ",
    "address": " 상도동 345-8번지",
    "number": " 010-2655-7529",
    "latitude": 37.50047756,
    "longitude": 126.9322923
  },
  "89": {
    "name": "글레베마켓",
    "rating": "5.0(1)",
    "type": "상점 ",
    "address": " 하월곡동 100-56번지",
    "number": null,
    "latitude": 37.60470703,
    "longitude": 127.0372019
  },
  "90": {
    "name": "용산 마블컬렉션",
    "rating": "4.8(4)",
    "type": "장난감 가게 ",
    "address": " 한강대로23길 55 아이파크몰 6층",
    "number": " 02-6373-3370",
    "latitude": 37.5297718,
    "longitude": 126.9647415
  },
  "91": {
    "name": "알라딘 중고서점 가로수길점",
    "rating": "4.4(836)",
    "type": "중고 서점 ",
    "address": " 강남대로152길 45",
    "number": " 1544-2514",
    "latitude": 37.51839445,
    "longitude": 127.0229862
  },
  "92": {
    "name": "씨네마포",
    "rating": "4.4(29)",
    "type": "카페 ",
    "address": " 서교동 독막로9길 3-3",
    "number": null,
    "latitude": 37.54863401,
    "longitude": 126.9193169
  },
  "93": {
    "name": "YG PLACE 인사점",
    "rating": "4.7(15)",
    "type": "음반 판매점 ",
    "address": " 관훈동 인사동길 49",
    "number": " 02-6954-2891",
    "latitude": 37.57446687,
    "longitude": 126.9835522
  },
  "94": {
    "name": "알라딘 중고서점 대학로점",
    "rating": "4.3(1,203)",
    "type": "중고 서점 ",
    "address": " 창경궁로 236",
    "number": " 1544-2514",
    "latitude": 37.58264363,
    "longitude": 126.9988342
  },
  "95": {
    "name": "밀리오레 동대문점",
    "rating": "3.8(2,476)",
    "type": "쇼핑몰 ",
    "address": " 을지로6가 18-185",
    "number": null,
    "latitude": 37.5683223,
    "longitude": 127.0083104
  },
  "96": {
    "name": "디자인샵",
    "rating": "리뷰 없음",
    "type": "쇼핑몰 ",
    "address": " 삼성동",
    "number": "02-2277-6977",
    "latitude": 37.51432257,
    "longitude": 127.062831
  },
  "97": {
    "name": "영풍문고 종로본점",
    "rating": "4.3(7,013)",
    "type": "서점 ",
    "address": " 청계천로 41",
    "number": " 02-399-5600",
    "latitude": 37.56966797,
    "longitude": 126.9821793
  },
  "98": {
    "name": "KREAM 쇼룸",
    "rating": "4.1(52)",
    "type": "상점 ",
    "address": " 와우산로 50-1",
    "number": " 1588-7813",
    "latitude": 37.54894034,
    "longitude": 126.9232146
  },
  "99": {
    "name": "애니컴",
    "rating": "5.0(3)",
    "type": "컴퓨터 관련용품점 ",
    "address": " 청파로 112 나진상가 15동 115호",
    "number": " 02-702-2724",
    "latitude": 37.53305742,
    "longitude": 126.9639216
  },
  "100": {
    "name": "SBA 서울애니메이션센터",
    "rating": "4.2(1,108)",
    "type": "문화센터 ",
    "address": " 회현동 소공로 48",
    "number": null,
    "latitude": 37.5598231,
    "longitude": 126.983074
  },
  "101": {
    "name": "애니기어 사당점",
    "rating": "3.8(44)",
    "type": "등산용품점 ",
    "address": " 사당동 1049-15 2층",
    "number": " 02-598-9888",
    "latitude": 37.47641744,
    "longitude": 126.9738862
  },
  "102": {
    "name": "애니버드샵",
    "rating": "리뷰 없음",
    "type": "상점 ",
    "address": " 미아동 87-177번지 1층",
    "number": null,
    "latitude": 37.61558418,
    "longitude": 127.0324345
  },
  "103": {
    "name": "(주)애니포미디어테크",
    "rating": "리뷰 없음",
    "type": "사무용 가구점 ",
    "address": " 구로3동",
    "number": " 02-2081-1340",
    "latitude": 37.4873483,
    "longitude": 126.8903306
  },
  "104": {
    "name": "팝시페텔",
    "rating": "4.8(4)",
    "type": "음반 판매점 ",
    "address": " 동교동 200-15",
    "number": " 02-336-6514",
    "latitude": 37.55793829,
    "longitude": 126.9220587
  },
  "105": {
    "name": "(주)애니파",
    "rating": "리뷰 없음",
    "type": "가전제품 매장 ",
    "address": " 신사동 513-4",
    "number": "02-542-9017",
    "latitude": 37.51701198,
    "longitude": 127.0208477
  },
  "106": {
    "name": "애니스타미술학원",
    "rating": "리뷰 없음",
    "type": "미술학원 ",
    "address": " 신정동 888-46번지 4층 청곡빌딩 양천구 서울특별시 KR",
    "number": "02-2698-8882",
    "latitude": 37.52666996,
    "longitude": 126.8633781
  },
  "107": {
    "name": "애니벅스 안양센터 (만화 애니메이션 학원)",
    "rating": "5.0(1)",
    "type": "미술학원 ",
    "address": " 안양동 668-39 대동빌딩 2층",
    "number": " 02-1522-2052",
    "latitude": 37.40055438,
    "longitude": 126.9203438
  },
  "108": {
    "name": "애니하비",
    "rating": "3.9(8)",
    "type": "장난감 가게 ",
    "address": " 삼양로 47",
    "number": " 02-911-5339",
    "latitude": 37.60744636,
    "longitude": 127.0232929
  },
  "109": {
    "name": "올리브영 합정메세나폴리스점",
    "rating": "4.3(3)",
    "type": "화장품 판매점 ",
    "address": " 양화로 45 지하 1층",
    "number": " 02-3486-1807",
    "latitude": 37.5515008,
    "longitude": 126.9139502
  },
  "110": {
    "name": "애니컴퓨터",
    "rating": "4.2(25)",
    "type": "컴퓨터 관련용품점 ",
    "address": " 부평5동",
    "number": " 032-502-2664",
    "latitude": 37.49363895,
    "longitude": 126.7283232
  },
  "111": {
    "name": "마지막 항목입니다.",
    "rating": "4.2(25)",
    "type": "컴퓨터 관련용품점 ",
    "address": " 부평5동",
    "number": " 032-502-2664",
    "latitude": 37.49363895,
    "longitude": 126.7283232
  },
  "112": {
    "name": "유어굿즈네이버페이문구,팬시용품",
    "rating": null,
    "type": "문구,팬시용품",
    "address": "서울 마포구 망원로6길 56 B01,02",
    "number": "0507-1372-2614",
    "latitude": 37.55443535,
    "longitude": 126.9037928
  },
  "113": {
    "name": "꼬꼬굿즈장난감",
    "rating": null,
    "type": "장난감",
    "address": "서울 마포구 어울마당로5길 42 꼬꼬굿즈",
    "number": "0507-1342-3129",
    "latitude": 37.54988943,
    "longitude": 126.9184823
  },
  "114": {
    "name": "사심굿즈문구,팬시용품",
    "rating": null,
    "type": "문구,팬시용품",
    "address": "서울 마포구 월드컵로19길 30 1층",
    "number": "0507-1318-4102",
    "latitude": 37.55620519,
    "longitude": 126.9078756
  },
  "115": {
    "name": "마나굿즈장난감",
    "rating": null,
    "type": "장난감",
    "address": "서울 노원구 상계로12길 71 지하 1층",
    "number": "02-936-9600",
    "latitude": 37.65546288,
    "longitude": 127.0708967
  },
  "116": {
    "name": "애니메굿즈장난감",
    "rating": null,
    "type": "장난감",
    "address": "서울 서초구 효령로 304 29,30호",
    "number": "0507-1410-7330",
    "latitude": 37.4847316,
    "longitude": 127.0178038
  },
  "117": {
    "name": "사운드캣 캣츠굿즈문구,팬시용품",
    "rating": null,
    "type": "문구,팬시용품",
    "address": "서울 용산구 원효로48길 17 캣츠타워 1층",
    "number": "070-4639-0882",
    "latitude": 37.53431597,
    "longitude": 126.961186
  },
  "118": {
    "name": "글로벌굿즈 삼아완구장난감",
    "rating": null,
    "type": "장난감",
    "address": "서울 영등포구 양산로 136-1 2층",
    "number": "070-7778-6524",
    "latitude": 37.52367044,
    "longitude": 126.8980981
  },
  "119": {
    "name": "드림굿즈네이버페이장난감",
    "rating": null,
    "type": "장난감",
    "address": "서울 은평구 불광로 122-10 상가동 101-1호",
    "number": "0507-1306-3434",
    "latitude": 37.61827037,
    "longitude": 126.9341808
  },
  "120": {
    "name": "굿앤굿즈종합도소매",
    "rating": null,
    "type": "종합도소매",
    "address": "서울 마포구 독막로6길 9 2층 2924호(합정동)",
    "number": "0507-1356-2448",
    "latitude": 37.54757554,
    "longitude": 126.9176507
  },
  "121": {
    "name": "마리굿즈인터넷상거래",
    "rating": null,
    "type": "인터넷상거래",
    "address": "서울 성동구 연무장길 81 2층 200호",
    "number": "010-4482-3088",
    "latitude": 37.54169627,
    "longitude": 127.0582472
  },
  "122": {
    "name": "굿즈샵제조업",
    "rating": null,
    "type": "제조업",
    "address": "서울 강서구 공항대로 426",
    "number": "070-4206-5588",
    "latitude": 37.55483191,
    "longitude": 126.8542297
  },
  "123": {
    "name": "올댓굿즈종합도소매",
    "rating": null,
    "type": "종합도소매",
    "address": "서울 중구 을지로44길 6",
    "number": "02-6833-3532",
    "latitude": 37.56587333,
    "longitude": 127.006532
  },
  "124": {
    "name": "굿즈메이트판촉,기념품",
    "rating": null,
    "type": "판촉,기념품",
    "address": "서울 관악구 남부순환로 2046 수정빌딩",
    "number": "070-8867-9709",
    "latitude": 37.47626725,
    "longitude": 126.9760792
  },
  "125": {
    "name": "알류레더굿즈공방",
    "rating": null,
    "type": "공방",
    "address": "서울 중구 다산로33길 74 1층",
    "number": "0507-1476-7490",
    "latitude": 37.56392889,
    "longitude": 127.0112689
  },
  "126": {
    "name": "굿즈파인더종합도소매",
    "rating": null,
    "type": "종합도소매",
    "address": "서울 동작구 현충로12길 30",
    "number": "0507-1312-2716",
    "latitude": 37.50521143,
    "longitude": 126.967533
  },
  "127": {
    "name": "화연굿즈패션잡화",
    "rating": null,
    "type": "패션잡화",
    "address": "서울 강서구 허준로 23 . 상가동 116호(가양동, 한강아파트)",
    "number": "0507-1327-4093",
    "latitude": 37.57121146,
    "longitude": 126.843592
  },
  "128": {
    "name": "하프굿즈네이버페이제품디자인",
    "rating": null,
    "type": "제품디자인",
    "address": "서울 성동구 성덕정5길 13-1 1층",
    "number": "0507-1367-4295",
    "latitude": 37.53971567,
    "longitude": 127.0487498
  },
  "129": {
    "name": "펫앤굿즈반려동물용품",
    "rating": null,
    "type": "반려동물용품",
    "address": "서울 송파구 충민로 66 8층 에프-8033호",
    "number": "0507-1337-0099",
    "latitude": 37.47761484,
    "longitude": 127.1249618
  },
  "130": {
    "name": "페이퍼크라운굿즈제품디자인",
    "rating": null,
    "type": "제품디자인",
    "address": "서울 성동구 아차산로11길 28",
    "number": "02-547-5954",
    "latitude": 37.54592575,
    "longitude": 127.0603957
  },
  "131": {
    "name": "굿즈온어스패션잡화",
    "rating": null,
    "type": "패션잡화",
    "address": "서울 마포구 월드컵로8길 45-8 3층 3269호",
    "number": "0507-1460-4449",
    "latitude": 37.55383533,
    "longitude": 126.9148827
  },
  "132": {
    "name": "굿즈이즈커밍무역",
    "rating": null,
    "type": "무역",
    "address": "서울 마포구 월드컵북로12안길 78 1층 이야기공방",
    "number": "0507-1317-9624",
    "latitude": 37.56492559,
    "longitude": 126.9131247
  },
  "133": {
    "name": "필쏘굿즈판촉,기념품",
    "rating": null,
    "type": "판촉,기념품",
    "address": "서울 동대문구 장안벚꽃로 335",
    "number": "011-377-1318",
    "latitude": 37.58803363,
    "longitude": 127.0690603
  },
  "134": {
    "name": "크리에이티브굿즈남성의류",
    "rating": null,
    "type": "남성의류",
    "address": "서울 강남구 선릉로112길 6 5층",
    "number": "0507-1360-0697",
    "latitude": 37.51108992,
    "longitude": 127.0442168
  },
  "135": {
    "name": "굿즈랜드인터넷상거래",
    "rating": null,
    "type": "인터넷상거래",
    "address": "서울 강북구 삼각산로34길 19",
    "number": "010-7907-6518",
    "latitude": 37.64103725,
    "longitude": 127.0217456
  },
  "136": {
    "name": "베스트굿즈판촉,기념품",
    "rating": null,
    "type": "판촉,기념품",
    "address": "서울 중랑구 망우로 353 C동 4402호",
    "number": "0507-1406-7511",
    "latitude": 37.59833282,
    "longitude": 127.0916241
  },
  "137": {
    "name": "굿즈컴퍼니극단",
    "rating": null,
    "type": "극단",
    "address": "서울 성북구 종암로38길 10 지하1층",
    "number": "0507-1345-9772",
    "latitude": 37.60622456,
    "longitude": 127.0319788
  },
  "138": {
    "name": "굿즈맵인터넷상거래",
    "rating": null,
    "type": "인터넷상거래",
    "address": "서울 성동구 송정길 32",
    "number": "0507-1383-5780",
    "latitude": 37.54872898,
    "longitude": 127.0633955
  },
  "139": {
    "name": "LK TRADING전자부품",
    "rating": null,
    "type": "전자부품",
    "address": "서울 구로구 경인로53길 15 중앙유통단지 B17-01호",
    "number": "0507-1321-5281",
    "latitude": 37.5020321,
    "longitude": 126.8761173
  },
  "140": {
    "name": "베베굿즈유아동복",
    "rating": null,
    "type": "유아동복",
    "address": "서울 영등포구 영등포로28길 5 당산동코오롱주.상복합아파트",
    "number": "070-7620-1722",
    "latitude": 37.51995668,
    "longitude": 126.899242
  },
  "141": {
    "name": "로빈굿즈네이버페이인터넷상거래",
    "rating": null,
    "type": "인터넷상거래",
    "address": "서울 성북구 종암로24가길 53 101동 2305호",
    "number": "070-7954-7713",
    "latitude": 37.60084117,
    "longitude": 127.0379642
  },
  "142": {
    "name": "베베굿즈유아,아동용품",
    "rating": null,
    "type": "유아,아동용품",
    "address": "서울 금천구 서부샛길 606 대성디폴리스 에이동 지하 105호",
    "number": "0507-1315-8250",
    "latitude": 37.4799535,
    "longitude": 126.8770082
  },
  "143": {
    "name": "텔레굿즈패션",
    "rating": null,
    "type": "패션",
    "address": "서울 은평구 연서로2길 5-19 상우맨션 B501",
    "number": "010-5106-0428",
    "latitude": 37.60154453,
    "longitude": 126.9165674
  },
  "144": {
    "name": "굿즈컴퍼니솔루션개발",
    "rating": null,
    "type": "솔루션개발",
    "address": "서울 강남구 선릉로 818 4층 129호",
    "number": "02-2086-0539",
    "latitude": 37.52474124,
    "longitude": 127.0400528
  },
  "145": {
    "name": "비이클굿즈생활용품",
    "rating": null,
    "type": "생활용품",
    "address": "서울 송파구 오금로 432 5동 501호",
    "number": "0507-1344-2489",
    "latitude": 37.49618328,
    "longitude": 127.1368189
  },
  "146": {
    "name": "알라딘중고서점 강남점서점",
    "rating": null,
    "type": "서점",
    "address": "서울 강남구 강남대로 438 스타플렉스",
    "number": "1544-2514",
    "latitude": 37.50164281,
    "longitude": 127.0263361
  },
  "147": {
    "name": "위드뮤 홍대 AK&점음반,CD",
    "rating": null,
    "type": "음반,CD",
    "address": "서울 마포구 양화로 188 AK& 2층",
    "number": "0507-1343-0429",
    "latitude": 37.55774581,
    "longitude": 126.9264983
  },
  "148": {
    "name": "알라딘중고서점 영등포점서점",
    "rating": null,
    "type": "서점",
    "address": "서울 영등포구 영중로 12 에쉐르빌딩 지하2층(지하상가 신세계백화점 맞은편)",
    "number": "1544-2514",
    "latitude": 37.51761761,
    "longitude": 126.906507
  },
  "149": {
    "name": "코믹존 대림사서점",
    "rating": null,
    "type": "서점",
    "address": "서울 관악구 신림로 300 웅산빌딩 지하1층",
    "number": "02-872-1717",
    "latitude": 37.48114052,
    "longitude": 126.9303107
  },
  "150": {
    "name": "씨네마포도서,음반,문구",
    "rating": null,
    "type": "도서,음반,문구",
    "address": "서울 마포구 독막로9길 3-3 1층",
    "number": "02-332-1100",
    "latitude": 37.54863401,
    "longitude": 126.9193169
  },
  "151": {
    "name": "알라딘중고서점 가로수길점서점",
    "rating": null,
    "type": "서점",
    "address": "서울 강남구 강남대로152길 45 지하1층 알라딘중고서점 가로수길점",
    "number": "1544-2514",
    "latitude": 37.51839445,
    "longitude": 127.0229862
  },
  "152": {
    "name": "알라딘중고서점 수유점서점",
    "rating": null,
    "type": "서점",
    "address": "서울 강북구 도봉로 342 2층",
    "number": "1544-2514",
    "latitude": 37.63803455,
    "longitude": 127.0261287
  },
  "153": {
    "name": "스모어마켓 롯데영플라자점문구,팬시용품",
    "rating": null,
    "type": "문구,팬시용품",
    "address": "서울 중구 남대문로 67 롯데영플라자 1층",
    "number": "02-2118-5153",
    "latitude": 37.56348677,
    "longitude": 126.9815302
  },
  "154": {
    "name": "포스트 포에틱스서점",
    "rating": null,
    "type": "서점",
    "address": "서울 용산구 이태원로54길 19",
    "number": "02-322-7023",
    "latitude": 37.53732149,
    "longitude": 127.0021925
  },
  "155": {
    "name": "안서당장난감",
    "rating": null,
    "type": "장난감",
    "address": "서울 마포구 신촌로6길 17",
    "number": "0507-1321-4762",
    "latitude": 37.55654538,
    "longitude": 126.9300198
  },
  "156": {
    "name": "위드뮤 용산아이파크몰점음반,CD",
    "rating": null,
    "type": "음반,CD",
    "address": "서울 용산구 한강대로23길 55 용산 아이파크몰 리빙파크 6층",
    "number": "0507-1342-2525",
    "latitude": 37.5297718,
    "longitude": 126.9647415
  },
  "157": {
    "name": "애니플러스 서울합정점장난감",
    "rating": null,
    "type": "장난감",
    "address": "서울 마포구 월드컵로3길 14 딜라이트 스퀘어 B동 B101호",
    "number": "070-7162-3000",
    "latitude": 37.55100797,
    "longitude": 126.911649
  },
  "158": {
    "name": "오모차랜드 홍대점장난감",
    "rating": null,
    "type": "장난감",
    "address": "서울 마포구 홍익로5길 36 2층 오모차랜드 홍대점",
    "number": "010-5775-6552",
    "latitude": 37.55363452,
    "longitude": 126.9204623
  },
  "159": {
    "name": "아이러브토이즈 홍대점취미,레저용품",
    "rating": null,
    "type": "취미,레저용품",
    "address": "서울 마포구 와우산로27길 32 2층 201호",
    "number": "0507-1380-0880",
    "latitude": 37.55455522,
    "longitude": 126.9268342
  },
  "160": {
    "name": "더 쿠장난감",
    "rating": null,
    "type": "장난감",
    "address": "서울 마포구 홍익로6길 38 지하 1층",
    "number": "0507-1310-8869",
    "latitude": 37.55586216,
    "longitude": 126.9237666
  },
  "161": {
    "name": "우주가챠네이버페이장난감",
    "rating": null,
    "type": "장난감",
    "address": "서울 강남구 봉은사로2길 13 지하1층",
    "number": "0507-1363-9825",
    "latitude": 37.50371567,
    "longitude": 127.0258859
  },
  "162": {
    "name": "피규어프레소 에프피점장난감",
    "rating": null,
    "type": "장난감",
    "address": "서울 마포구 와우산로29길 48-11 지하 1층 피규어프레소 에프피점",
    "number": "010-7105-9467",
    "latitude": 37.55579919,
    "longitude": 126.9276448
  },
  "163": {
    "name": "카메하우스 홍대점장난감",
    "rating": null,
    "type": "장난감",
    "address": "서울 마포구 와우산로25길 26 1층",
    "number": "010-3255-7996",
    "latitude": 37.55443468,
    "longitude": 126.9261269
  },
  "164": {
    "name": "모와즐 홍대점문구,팬시용품",
    "rating": null,
    "type": "문구,팬시용품",
    "address": "서울 마포구 양화로18안길 12 지층",
    "number": "0507-1361-3402",
    "latitude": 37.55667496,
    "longitude": 126.9253361
  },
  "165": {
    "name": "피규어프레소 홍대점네이버페이장난감",
    "rating": null,
    "type": "장난감",
    "address": "서울 마포구 홍익로5안길 50 1,2층 피규어프레소 홍대점",
    "number": "0507-1316-9467",
    "latitude": 37.5528958,
    "longitude": 126.9203479
  },
  "166": {
    "name": "금지옥엽도서,음반,문구",
    "rating": null,
    "type": "도서,음반,문구",
    "address": "서울 중구 청계천로 160 세운청계상가 3층 데크 가열 312호",
    "number": "02-2273-0220",
    "latitude": 37.56797986,
    "longitude": 126.9953651
  },
  "167": {
    "name": "더세임 엠디샵도서,음반,문구",
    "rating": null,
    "type": "도서,음반,문구",
    "address": "서울 마포구 희우정로1길 6-3 B1층",
    "number": "02-332-2030",
    "latitude": 37.54923201,
    "longitude": 126.9077614
  },
  "168": {
    "name": "피규어프레소 에프레소점네이버페이장난감",
    "rating": null,
    "type": "장난감",
    "address": "서울 마포구 홍익로5안길 53-4 1층",
    "number": "0507-1325-9467",
    "latitude": 37.55250535,
    "longitude": 126.9204055
  },
  "169": {
    "name": "곰인이네네이버페이문구,팬시용품",
    "rating": null,
    "type": "문구,팬시용품",
    "address": "서울 중구 퇴계로88길 23-18 썬플라워힐즈 1층",
    "number": "0507-1409-1412",
    "latitude": 37.5641399,
    "longitude": 127.0216469
  },
  "170": {
    "name": "인아워맨션네이버페이문구,팬시용품",
    "rating": null,
    "type": "문구,팬시용품",
    "address": "서울 강남구 논현로26길 40 2층",
    "number": "0507-1348-3104",
    "latitude": 37.48360812,
    "longitude": 127.0454419
  },
  "171": {
    "name": "데일리덕도서,음반,문구",
    "rating": null,
    "type": "도서,음반,문구",
    "address": "서울 마포구 와우산로 169 3층",
    "number": "0507-1365-1344",
    "latitude": 37.55596722,
    "longitude": 126.9308008
  },
  "172": {
    "name": "호기심정원 서래서점",
    "rating": null,
    "type": "서점",
    "address": "서울 서초구 사평대로20길 7 태한빌딩 1층",
    "number": "0507-1373-6261",
    "latitude": 37.4989727,
    "longitude": 126.9972626
  },
  "173": {
    "name": "울트라하우스네이버페이취미,레저용품",
    "rating": null,
    "type": "취미,레저용품",
    "address": "서울 송파구 올림픽로12길 36 1층",
    "number": "070-4833-7005",
    "latitude": 37.50824303,
    "longitude": 127.0833835
  },
  "174": {
    "name": "노리커뮤니케이션서점",
    "rating": null,
    "type": "서점",
    "address": "서울 관악구 신림동5길 38 지층 노리커뮤니케이션",
    "number": "02-730-0736",
    "latitude": 37.48551404,
    "longitude": 126.9275072
  },
  "175": {
    "name": "애니플라자장난감",
    "rating": null,
    "type": "장난감",
    "address": "서울 마포구 어울마당로 136-9",
    "number": "0507-1497-1999",
    "latitude": 37.55590759,
    "longitude": 126.9254941
  },
  "176": {
    "name": "일상비일상의틈복합문화공간",
    "rating": null,
    "type": "복합문화공간",
    "address": "서울 강남구 강남대로 426",
    "number": "070-4090-8005",
    "latitude": 37.50058313,
    "longitude": 127.0267613
  },
  "177": {
    "name": "알베르토 아트샵문구,팬시용품",
    "rating": null,
    "type": "문구,팬시용품",
    "address": "서울 송파구 오금로18길 11 101호",
    "number": "02-3412-5752",
    "latitude": 37.50971293,
    "longitude": 127.1104966
  },
  "178": {
    "name": "안녕도나야네이버페이문구,팬시용품",
    "rating": null,
    "type": "문구,팬시용품",
    "address": "서울 서초구 방배로37길 7 1층 HIDONAYA",
    "number": "02-553-8875",
    "latitude": 37.49358224,
    "longitude": 126.9892929
  },
  "179": {
    "name": "팬스랜드음반,CD",
    "rating": null,
    "type": "음반,CD",
    "address": "서울 구로구 부광로 88 에스케이브이1센터 에이동 712호",
    "number": "02-9675-8876",
    "latitude": 37.47718308,
    "longitude": 126.816854
  },
  "180": {
    "name": "숍 피크닉문구,팬시용품",
    "rating": null,
    "type": "문구,팬시용품",
    "address": "서울 중구 퇴계로6가길 30 지하1층 shop piknic",
    "number": "070-8890-6835",
    "latitude": 37.55697639,
    "longitude": 126.9781213
  },
  "181": {
    "name": "스모어마켓 토이하우스네이버페이카페,디저트",
    "rating": null,
    "type": "카페,디저트",
    "address": "서울 종로구 율곡로3길 74-3",
    "number": "0507-1399-0801",
    "latitude": 37.5790379,
    "longitude": 126.9823907
  },
  "182": {
    "name": "커피리브레 연남점카페,디저트",
    "rating": null,
    "type": "카페,디저트",
    "address": "서울 마포구 성미산로 200",
    "number": "02-334-0615",
    "latitude": 37.56220251,
    "longitude": 126.9269623
  },
  "183": {
    "name": "에프피엔터테인먼트장난감",
    "rating": null,
    "type": "장난감",
    "address": "서울 마포구 광성로 37-13 1층,지층",
    "number": "#",
    "latitude": 37.55024244,
    "longitude": 126.9366905
  },
  "184": {
    "name": "갤러리 아투고문구,팬시용품",
    "rating": null,
    "type": "문구,팬시용품",
    "address": "서울 중구 퇴계로20길 67 1층",
    "number": "0507-1308-6175",
    "latitude": 37.5580331,
    "longitude": 126.9867448
  },
  "185": {
    "name": "새벽로망장난감",
    "rating": null,
    "type": "장난감",
    "address": "서울 마포구 연남로5길 20 성탑 103호",
    "number": "02-325-8785",
    "latitude": 37.56204983,
    "longitude": 126.9207317
  },
  "186": {
    "name": "비오오케이도서,음반,문구",
    "rating": null,
    "type": "도서,음반,문구",
    "address": "서울 관악구 호암로24길 17 1층",
    "number": "0507-1488-5830",
    "latitude": 37.46994981,
    "longitude": 126.934262
  },
  "187": {
    "name": "식물성 도산카페,디저트",
    "rating": null,
    "type": "카페,디저트",
    "address": "서울 강남구 압구정로42길 54 1층",
    "number": "0507-1432-1178",
    "latitude": 37.52550208,
    "longitude": 127.0342258
  },
  "188": {
    "name": "플라이웨이 스토어문구,팬시용품",
    "rating": null,
    "type": "문구,팬시용품",
    "address": "서울 종로구 인사동길 44 쌈지길 1층 G1-8호",
    "number": "0507-1355-0662",
    "latitude": 37.57426477,
    "longitude": 126.9848766
  },
  "189": {
    "name": "레이어드라운지종합도소매",
    "rating": null,
    "type": "종합도소매",
    "address": "서울 관악구 남부순환로 1845 1층, 지하1층",
    "number": "0507-1327-8236",
    "latitude": 37.48066111,
    "longitude": 126.955289
  },
  "190": {
    "name": "시몬스 그로서리 스토어 청담가정,생활용품",
    "rating": null,
    "type": "가정,생활용품",
    "address": "서울 강남구 선릉로158길 14-1 시몬스 그로서리 스토어 청담",
    "number": "02-541-6574",
    "latitude": 37.52514431,
    "longitude": 127.0412136
  },
  "191": {
    "name": "토이토모장난감",
    "rating": null,
    "type": "장난감",
    "address": "서울 서초구 효령로 304 국제전자센터 9층 111호",
    "number": "0507-1490-0602",
    "latitude": 37.4847316,
    "longitude": 127.0178038
  },
  "192": {
    "name": "스마일팩토리네이버페이슬라임카페",
    "rating": null,
    "type": "슬라임카페",
    "address": "서울 동작구 사당로27길 130 주상가동 B201호 (사당동, 이수역리가아파트)",
    "number": "02-533-9422",
    "latitude": 37.48982944,
    "longitude": 126.9728808
  },
  "193": {
    "name": "후암연립카페,디저트",
    "rating": null,
    "type": "카페,디저트",
    "address": "서울 용산구 두텁바위로1가길 47",
    "number": "0507-1443-1100",
    "latitude": 37.54843952,
    "longitude": 126.9762337
  },
  "194": {
    "name": "해월동NFT아트갤러리, 해월동GRASSE퍼퓸복합문화공간",
    "rating": null,
    "type": "복합문화공간",
    "address": "서울 강남구 도산대로 119",
    "number": "02-1833-6325",
    "latitude": 37.51732614,
    "longitude": 127.0214654
  },
  "195": {
    "name": "피죤그램 성수카페,디저트",
    "rating": null,
    "type": "카페,디저트",
    "address": "서울 성동구 연무장길 5 1층 pigeongram",
    "number": "0507-1354-4143",
    "latitude": 37.54407534,
    "longitude": 127.0502484
  },
  "196": {
    "name": "슈퍼플레이 AK& 홍대점게임",
    "rating": null,
    "type": "게임",
    "address": "서울 마포구 양화로 188 AK& 5층 슈퍼플레이",
    "number": "02-3142-8715",
    "latitude": 37.55774581,
    "longitude": 126.9264983
  },
  "197": {
    "name": "호에마켓종합도소매",
    "rating": null,
    "type": "종합도소매",
    "address": "서울 광진구 천호대로130길 22 호에마켓",
    "number": "0507-1331-6504",
    "latitude": 37.55077569,
    "longitude": 127.0887105
  },
  "198": {
    "name": "원피규어인테리어소품",
    "rating": null,
    "type": "인테리어소품",
    "address": "서울 마포구 홍익로6길 14 2층(동교동, 태승빌딩)",
    "number": "0507-1316-9856",
    "latitude": 37.55515023,
    "longitude": 126.9228595
  },
  "199": {
    "name": "레드프린팅 앤 프레스인쇄업",
    "rating": null,
    "type": "인쇄업",
    "address": "서울 성동구 아차산로11길 30",
    "number": "02-1544-6698",
    "latitude": 37.54612227,
    "longitude": 127.060533
  },
  "200": {
    "name": "YGPLACE종합패션",
    "rating": null,
    "type": "종합패션",
    "address": "서울 중구 세종대로18길 28",
    "number": "070-7779-5107",
    "latitude": 37.5637,
    "longitude": 126.9786573
  },
  "201": {
    "name": "TEESSERT카페,디저트",
    "rating": null,
    "type": "카페,디저트",
    "address": "서울 성동구 아차산로 126 지상동 1층 105호(성수동2가, 더리 브 세종타워)",
    "number": "0507-1320-9440",
    "latitude": 37.54349891,
    "longitude": 127.0580539
  },
  "202": {
    "name": "만화살롱 유어마나북카페",
    "rating": null,
    "type": "북카페",
    "address": "서울 마포구 와우산로 13 B1",
    "number": "02-332-7972",
    "latitude": 37.54565425,
    "longitude": 126.9227213
  },
  "203": {
    "name": "오로앤샵패션잡화",
    "rating": null,
    "type": "패션잡화",
    "address": "서울 영등포구 도림로 438 오로앤샵",
    "number": "010-5681-5641",
    "latitude": 37.51460123,
    "longitude": 126.8946192
  },
  "204": {
    "name": "라플라야카페,디저트",
    "rating": null,
    "type": "카페,디저트",
    "address": "서울 강남구 개포로 210 1층 (개포동, 충의빌딩)",
    "number": "0507-1339-0140",
    "latitude": 37.47835032,
    "longitude": 127.0458261
  },
  "205": {
    "name": "스튜디오 오켄스패션",
    "rating": null,
    "type": "패션",
    "address": "서울 마포구 망원로 22 2/3F",
    "number": "0507-1340-0262",
    "latitude": 37.55604867,
    "longitude": 126.8993509
  },
  "206": {
    "name": "별냥이제작소네이버페이인테리어소품",
    "rating": null,
    "type": "인테리어소품",
    "address": "서울 마포구 동교로46길 24-5",
    "number": "0507-1373-3367",
    "latitude": 37.56211338,
    "longitude": 126.9260552
  },
  "207": {
    "name": "밀리스트공방",
    "rating": null,
    "type": "공방",
    "address": "서울 성동구 광나루로4길 8-1 1층 밝은 점포",
    "number": "0507-1348-2483",
    "latitude": 37.54958458,
    "longitude": 127.053746
  },
  "208": {
    "name": "서울스티커샵시각디자인",
    "rating": null,
    "type": "시각디자인",
    "address": "서울 종로구 삼청로 68 2층 서울스티커샵",
    "number": "0507-1387-7079",
    "latitude": 37.58157655,
    "longitude": 126.9813322
  }
}
